City_ID,City,Lat,Lng,Max Temp,Humidity,Cloudiness,Wind Speed,Country,Date
0,college,64.8569,-147.8028,27.82,58,75,0.89,US,1690412885
1,waitangi,-43.9535,-176.5597,9.34,89,95,2.68,NZ,1690412885
2,port-aux-francais,-49.35,70.2167,4.84,77,78,18.14,TF,1690412703
3,dunedin,-45.8742,170.5036,8.22,56,84,6.71,NZ,1690412424
4,bilibino,68.0546,166.4372,11.94,67,35,2.09,RU,1690412886
5,rongelap,11.1635,166.8941,28.24,81,100,8.29,MH,1690412886
6,olonkinbyen,70.9221,-8.7187,4.68,89,100,5.55,SJ,1690412887
7,st. john's,47.5649,-52.7093,24.66,50,75,8.23,CA,1690412313
8,albany,42.6001,-73.9662,28.83,69,83,0.2,US,1690412661
9,kill devil hills,36.0307,-75.676,31.1,70,0,6.17,US,1690412887
10,quellon,-43.1167,-73.6167,8.14,93,100,1.03,CL,1690412888
11,kodiak,57.79,-152.4072,14.73,82,100,3.09,US,1690412888
12,pullman,46.7313,-117.1796,27.14,27,5,2.24,US,1690412594
13,blackmans bay,-43.0167,147.3167,9.18,86,100,2.2,AU,1690412888
14,adamstown,-25.066,-130.1015,19.64,65,75,7.65,PN,1690412888
15,nar'yan-mar,67.6713,53.087,14.91,74,54,1.68,RU,1690412366
16,luderitz,-26.6481,15.1594,12.8,71,0,4.01,NA,1690412338
17,bredasdorp,-34.5322,20.0403,9.31,92,51,2.26,ZA,1690412714
18,ghadamis,30.1337,9.5007,35.66,9,0,3.21,LY,1690412460
19,wailua homesteads,22.0669,-159.378,30.44,73,20,6.17,US,1690412889
20,pokrovka,42.3414,78.0056,18.98,51,12,2.53,KG,1690412890
21,san antonio de pale,-1.4014,5.6325,22.8,90,93,4.27,GQ,1690412385
22,bethel,41.3712,-73.414,29.09,69,0,3.13,US,1690412890
23,hermanus,-34.4187,19.2345,12.28,83,9,3.03,ZA,1690412890
24,grytviken,-54.2811,-36.5092,0.11,98,100,4.74,GS,1690412707
25,iqaluit,63.7506,-68.5145,9.85,71,40,1.54,CA,1690412706
26,aquiraz,-3.9014,-38.3911,27.05,86,6,5.38,BR,1690412892
27,thompson,55.7435,-97.8558,16.99,59,100,1.41,CA,1690412892
28,chernyshevskiy,63.0128,112.4714,16.29,71,55,4.2,RU,1690412509
29,sao vicente,-23.9631,-46.3919,29.1,26,31,2.28,BR,1690412893
30,neya,58.2972,43.8681,18.55,98,88,3.97,RU,1690412893
31,minas de marcona,-15.2119,-75.1103,12.87,82,23,6.38,PE,1690412344
32,santiago,-33.4569,-70.6483,15.89,63,75,3.09,CL,1690412607
33,salalah,17.0151,54.0924,24.3,95,100,4.24,OM,1690412380
34,puerto santander,8.3636,-72.4063,31.67,71,45,1.35,CO,1690412894
35,hithadhoo,-0.6,73.0833,28.21,79,45,6.82,MV,1690412894
36,edinburgh of the seven seas,-37.0676,-12.3116,10.4,63,63,10.9,SH,1690412895
37,anadyr,64.75,177.4833,11.67,81,75,4.0,RU,1690412895
38,tolanaro,-25.0319,46.9987,19.04,77,40,5.14,MG,1690412304
39,puerto ayora,-0.7393,-90.3518,25.31,91,91,3.13,EC,1690412896
40,ushuaia,-54.8,-68.3,0.81,75,0,7.2,AR,1690412150
41,ust-nera,64.5667,143.2,13.74,65,91,2.98,RU,1690412334
42,yellowknife,62.456,-114.3525,24.44,30,1,4.07,CA,1690412896
43,tazovsky,67.4667,78.7,15.71,89,12,1.76,RU,1690412897
44,fillmore,43.6666,-92.1002,31.87,58,0,0.0,US,1690412897
45,puerto natales,-51.7236,-72.4875,-0.74,92,100,1.75,CL,1690412897
46,hampton bays,40.869,-72.5176,27.41,82,0,4.12,US,1690412897
47,hawaiian paradise park,19.5933,-154.9731,28.74,80,40,4.63,US,1690412898
48,afaahiti,-17.75,-149.2833,24.93,86,55,3.79,PF,1690412898
49,margaret river,-33.95,115.0667,12.79,73,100,7.16,AU,1690412898
50,guarapari,-20.6667,-40.4975,21.61,86,8,4.29,BR,1690412898
51,rasht,37.2808,49.5832,23.17,75,20,1.16,IR,1690412898
52,city of balikpapan,-1.242,116.8942,24.97,100,40,3.6,ID,1690412899
53,west island,-12.1568,96.8225,23.99,88,75,10.29,CC,1690412898
54,cill airne,52.05,-9.5167,16.29,99,100,2.54,IE,1690412514
55,katsuura,35.1333,140.3,27.71,77,5,3.04,JP,1690412899
56,kudahuvadhoo,2.6708,72.8944,28.21,77,50,4.53,MV,1690412899
57,ola,59.5833,151.2833,16.19,97,100,3.21,RU,1690412900
58,cannonvale,-20.2833,148.7,20.66,69,90,8.99,AU,1690412900
59,kapa'a,22.0752,-159.319,31.18,78,75,6.17,US,1690412382
60,la passe,45.5549,-0.8967,19.43,92,1,2.6,FR,1690412900
61,letlhakeng,-24.0944,25.0298,13.13,60,0,4.43,BW,1690412900
62,kone,-21.0595,164.8658,22.22,40,0,2.35,NC,1690412435
63,ta`u,-14.2336,-169.5144,25.55,73,97,5.15,AS,1690412327
64,tura,25.5198,90.2201,23.73,98,100,2.95,IN,1690412901
65,aasiaat,68.7098,-52.8699,3.62,91,37,4.03,GL,1690412901
66,znamenskoye,57.1281,73.8282,17.01,75,99,1.57,RU,1690412902
67,howard springs,-12.497,131.047,19.95,32,77,3.08,AU,1690412217
68,alto araguaia,-17.3147,-53.2153,24.83,29,33,1.0,BR,1690412902
69,stanley,54.868,-1.6985,13.49,94,75,1.54,GB,1690412610
70,north branch,45.5113,-92.9802,35.05,62,0,5.75,US,1690412903
71,alofi,-19.0595,-169.9187,24.94,57,75,1.03,NU,1690412903
72,san pedro pochutla,15.7333,-96.4667,33.17,63,31,2.87,MX,1690412903
73,turkmenbasy,40.0222,52.9552,21.43,78,0,2.06,TM,1690412903
74,longyearbyen,78.2186,15.6401,10.91,82,40,2.57,SJ,1690412903
75,arraial do cabo,-22.9661,-42.0278,21.92,83,0,6.69,BR,1690412326
76,udachny,66.4167,112.4,18.03,67,100,1.13,RU,1690412904
77,vadso,70.0744,29.7487,10.09,93,100,0.0,NO,1690412904
78,axim,4.8699,-2.2405,24.5,92,91,2.79,GH,1690412527
79,nagqu,31.5,92.0,4.18,78,100,1.39,CN,1690412466
80,revda,56.801,59.9303,12.57,95,2,1.21,RU,1690412455
81,ilulissat,69.2167,-51.1,13.01,50,0,4.12,GL,1690412878
82,saldanha,-33.0117,17.9442,9.03,94,87,5.2,ZA,1690412567
83,naze,28.3667,129.4833,25.79,82,100,6.97,JP,1690412905
84,broken hill,-31.95,141.4333,13.42,48,0,7.16,AU,1690412238
85,sitka,57.0531,-135.33,15.94,82,100,2.06,US,1690412218
86,beledweyne,4.7358,45.2036,23.46,74,31,9.02,SO,1690412905
87,san julian,21.0167,-102.1667,17.21,72,98,7.18,MX,1690412440
88,dashiqiao,40.6373,122.5025,25.9,82,2,3.77,CN,1690412708
89,aswan,24.0934,32.907,34.9,13,99,3.31,EG,1690412906
90,tiksi,71.6872,128.8694,8.2,67,41,1.53,RU,1690412906
91,jamestown,42.097,-79.2353,27.79,54,100,5.14,US,1690412725
92,isafjordur,66.0755,-23.124,7.18,83,79,5.38,IS,1690412907
93,utrik,11.2278,169.8474,28.18,81,100,8.57,MH,1690412249
94,schweizer-reneke,-27.1887,25.3293,11.92,58,21,6.5,ZA,1690412907
95,bobo-dioulasso,11.1771,-4.2979,24.99,76,56,2.73,BF,1690412907
96,portland,45.5234,-122.6762,29.96,36,2,2.68,US,1690412521
97,dolores,-36.3132,-57.6792,9.39,74,10,6.79,AR,1690412516
98,invercargill,-46.4,168.35,6.98,62,100,5.32,NZ,1690412446
99,alexandria,31.2156,29.9553,26.3,66,0,2.12,EG,1690412301
100,mountain home,43.133,-115.6912,34.71,17,0,3.6,US,1690412908
101,shagonar,51.5333,92.8,14.8,73,82,0.66,RU,1690412909
102,bom jesus da lapa,-13.255,-43.4181,27.0,30,43,3.22,BR,1690412802
103,vorgashor,67.5833,63.95,13.8,94,100,2.88,RU,1690412909
104,mirnyy,62.5353,113.9611,15.69,72,33,4.02,RU,1690412909
105,kargasok,59.0556,80.8572,14.12,96,36,2.81,RU,1690412515
106,stornoway,58.2093,-6.3865,13.98,83,100,3.6,GB,1690412910
107,khandyga,62.6667,135.6,19.15,41,0,5.2,RU,1690412374
108,enewetak,11.3474,162.3373,28.4,76,93,6.35,MH,1690412910
109,hinton,53.4001,-117.5857,12.42,80,100,3.09,CA,1690412327
110,egilsstadir,65.2653,-14.3948,8.08,92,96,3.57,IS,1690412910
111,kongsvinger,60.1905,11.9977,10.37,97,6,1.06,NO,1690412911
112,pritzwalk,53.1494,12.1741,12.55,95,64,3.18,DE,1690412911
113,arvayheer,46.2639,102.775,14.59,66,54,1.27,MN,1690412331
114,klyuchi,52.2667,79.1667,22.0,37,100,2.77,RU,1690412911
115,kiffa,16.6166,-11.4045,34.81,42,27,6.44,MR,1690412912
116,antofagasta,-23.65,-70.4,17.6,88,29,2.23,CL,1690412793
117,port douglas,-16.4833,145.4667,22.35,78,84,7.4,AU,1690412912
118,san luis de la loma,17.2706,-100.8939,31.48,63,62,4.37,MX,1690412383
119,kourou,5.1552,-52.6478,26.03,84,16,2.7,GF,1690412539
120,papatowai,-46.5619,169.4708,5.69,85,100,11.86,NZ,1690412913
121,laguna,38.421,-121.4238,37.88,30,0,5.14,US,1690412913
122,narrabri,-30.3167,149.7833,13.94,54,0,1.28,AU,1690412913
123,port mathurin,-19.6833,63.4167,23.7,76,61,5.77,MU,1690412705
124,saipan,15.1355,145.701,27.39,100,100,7.2,MP,1690412913
125,pangoa,-12.1167,-73.0,25.46,61,53,0.69,PE,1690412914
126,zakamensk,50.3741,103.2863,13.31,88,23,0.8,RU,1690412914
127,alo,7.4178,6.7371,24.42,94,85,1.65,NG,1690412467
128,tazacorte,28.629,-17.9293,23.54,90,20,6.69,ES,1690412914
129,berezovo,63.9381,65.0419,14.0,95,100,2.49,RU,1690412914
130,cidreira,-30.1811,-50.2056,17.33,89,100,6.19,BR,1690412914
131,maun,-19.9833,23.4167,14.25,38,0,2.67,BW,1690412915
132,lihue,21.9789,-159.3672,30.77,67,75,6.17,US,1690412330
133,umm ruwaba,12.9061,31.2158,26.45,65,100,6.35,SD,1690412919
134,les cayes,18.2,-73.75,29.21,69,100,2.93,HT,1690412919
135,launceston,-41.45,147.1667,10.45,91,100,5.66,AU,1690412919
136,meknes,33.9776,-5.525,21.67,63,0,2.64,MA,1690412919
137,chibougamau,49.9168,-74.3659,20.33,64,100,4.42,CA,1690412920
138,cruzeiro do oeste,-23.785,-53.0733,22.08,53,52,0.99,BR,1690412920
139,rancho palos verdes,33.7445,-118.387,37.82,62,20,7.2,US,1690412920
140,namibe,-15.1961,12.1522,16.13,88,84,3.23,AO,1690412920
141,guayaramerin,-10.8368,-65.3614,27.41,41,4,1.36,BO,1690412921
142,tadine,-21.55,167.8833,20.91,56,96,8.46,NC,1690412476
143,argo,37.6333,22.7333,29.32,48,6,2.52,GR,1690412921
144,dryden,49.7833,-92.7503,28.16,57,40,1.03,CA,1690412539
145,ilhabela,-23.7781,-45.3581,22.53,69,47,2.05,BR,1690412921
146,fortuna,40.5982,-124.1573,22.18,67,0,6.17,US,1690412321
147,punta arenas,-53.15,-70.9167,0.51,74,18,5.3,CL,1690412771
148,harper,4.375,-7.7169,24.98,89,75,4.33,LR,1690412393
149,cabo san lucas,22.8909,-109.9124,34.78,68,72,2.24,MX,1690412334
150,cypress,33.817,-118.0373,41.91,50,20,5.14,US,1690412922
151,carutapera,-1.195,-46.02,25.4,85,10,3.24,BR,1690412785
152,hun,29.1268,15.9477,33.11,12,0,3.66,LY,1690412922
153,talnakh,69.4865,88.3972,22.34,63,26,2.43,RU,1690412923
154,carbonear,47.7332,-53.2148,22.23,71,92,5.76,CA,1690412923
155,zouerate,22.7187,-12.4521,34.67,14,8,9.68,MR,1690412923
156,petropavlovsk-kamchatsky,53.0452,158.6483,21.33,68,0,2.0,RU,1690412923
157,lompoc,34.6391,-120.4579,33.77,73,75,4.12,US,1690412180
158,alice springs,-23.7,133.8833,11.75,76,100,0.0,AU,1690412627
159,yuzhno-kurilsk,44.0306,145.8556,20.71,87,77,2.11,RU,1690412924
160,prado,-17.3411,-39.2208,21.48,76,18,2.52,BR,1690412328
161,lensk,60.7253,114.9278,19.96,85,46,2.0,RU,1690412924
162,pike road,32.2843,-86.103,33.83,75,60,6.16,US,1690412924
163,avarua,-21.2078,-159.775,24.03,69,40,3.09,CK,1690412924
164,hamilton,39.1834,-84.5333,31.69,68,20,8.23,US,1690412083
165,iwanai,42.9744,140.5089,27.22,69,100,1.11,JP,1690412925
166,kailua-kona,19.6406,-155.9956,31.39,77,40,5.66,US,1690412925
167,qamdo,31.1667,97.2333,0.66,91,8,2.43,CN,1690412925
168,ambodifotatra,-16.9833,49.85,21.2,85,47,7.75,MG,1690412458
169,flying fish cove,-10.4217,105.6791,24.82,83,100,4.63,CX,1690412330
170,rodolfo sanchez taboada,31.7167,-116.5667,23.39,72,34,2.68,MX,1690412926
171,wellington,-41.2866,174.7756,13.66,69,66,3.6,NZ,1690412926
172,lebu,-37.6167,-73.65,8.89,84,100,1.29,CL,1690412926
173,amga,60.8953,131.9608,19.21,61,94,1.43,RU,1690412519
174,castillos,-34.1667,-53.8333,10.44,80,57,6.55,UY,1690412926
175,sokur,55.2093,83.319,15.2,79,38,2.16,RU,1690412926
176,taoudenni,22.6783,-3.9836,40.17,17,54,6.03,ML,1690412927
177,basmat,19.3167,77.1667,23.97,92,100,6.71,IN,1690412927
178,kismayo,-0.3582,42.5454,24.42,80,72,6.73,SO,1690412927
179,alghero,40.5589,8.3181,19.05,72,0,0.51,IT,1690412927
180,yanji,42.9075,129.5078,25.41,73,1,1.38,CN,1690412927
181,whitehorse,60.7161,-135.0538,22.43,53,75,2.06,CA,1690412452
182,qandala,11.472,49.8728,32.37,45,9,6.3,SO,1690412928
183,namdrik,5.5994,168.1028,28.24,75,82,3.09,MH,1690412928
184,shkoder,42.0683,19.5126,24.1,78,47,1.66,AL,1690412928
185,sinop,41.7711,34.8709,22.97,43,0,4.82,TR,1690412928
186,sisimiut,66.9395,-53.6735,6.57,82,50,1.64,GL,1690412390
187,tralee,52.2704,-9.7026,16.04,96,100,7.86,IE,1690412444
188,weno,7.4515,151.8468,27.84,77,69,3.72,FM,1690412929
189,malgrat de mar,41.6466,2.7414,25.06,79,1,0.89,ES,1690412929
190,palmer,42.1584,-72.3287,28.78,57,40,6.17,US,1690412363
191,jiuquan,39.7432,98.5174,24.2,34,85,1.08,CN,1690412929
192,brisas de zicatela,15.8369,-97.0419,31.29,55,75,3.09,MX,1690412929
193,atafu village,-8.5421,-172.5159,28.42,74,30,8.55,TK,1690412929
194,bowen,-20.0167,148.2333,21.7,67,90,9.0,AU,1690412930
195,verkhnevilyuysk,63.4453,120.3167,16.85,51,62,2.86,RU,1690412930
196,labasa,-16.4167,179.3833,22.73,89,100,3.5,FJ,1690412930
197,saguenay,48.4168,-71.0657,26.46,50,100,4.63,CA,1690412762
198,pacific grove,36.6177,-121.9166,27.44,83,40,4.63,US,1690412930
199,mo i rana,66.3128,14.1428,15.18,89,100,1.03,NO,1690412930
200,qaqortoq,60.7167,-46.0333,6.56,84,89,2.21,GL,1690412931
201,bargaal,11.2864,51.0773,26.82,67,14,11.94,SO,1690412931
202,punta del este,-34.9667,-54.95,12.76,86,20,7.6,UY,1690412470
203,ribeira grande,38.5167,-28.7,23.21,94,13,4.02,PT,1690412931
204,wusong,30.95,117.7833,26.93,87,72,1.67,CN,1690412931
205,ghat,24.9647,10.1728,32.01,11,0,1.19,LY,1690412534
206,kertih,4.5141,103.4483,24.15,89,100,1.69,MY,1690412932
207,holualoa,19.6228,-155.9522,29.32,77,40,5.66,US,1690412932
208,kapuskasing,49.4169,-82.4331,22.88,63,100,2.15,CA,1690412932
209,rio grande,-32.035,-52.0986,15.06,88,63,4.75,BR,1690412401
210,susaki,33.3667,133.2833,28.75,74,12,0.37,JP,1690412932
211,tamala,52.541,43.2515,19.86,71,27,4.11,RU,1690412933
212,fort mcmurray,56.7268,-111.381,20.77,56,75,4.12,CA,1690412334
213,columbus,39.9612,-82.9988,31.46,67,75,7.2,US,1690412794
214,port lincoln,-34.7333,135.8667,14.22,56,51,8.23,AU,1690412933
215,buala,-8.145,159.5921,26.91,85,100,3.13,SB,1690412341
216,dazhou,31.2159,107.5009,24.16,95,100,1.33,CN,1690412933
217,muynoq,43.7683,59.0214,26.76,50,65,4.81,UZ,1690412933
218,ndjole,-0.1783,10.7649,24.92,79,76,1.47,GA,1690412934
219,xining,36.6167,101.7667,13.48,95,100,1.01,CN,1690412416
220,georgetown,5.4112,100.3354,26.96,89,40,0.0,MY,1690412813
221,kirkwall,58.9848,-2.9587,9.98,87,1,2.06,GB,1690412934
222,ouesso,1.6136,16.0517,23.57,87,97,0.82,CG,1690412934
223,keflavik,64.0049,-22.5624,12.95,82,75,3.6,IS,1690412716
224,coyuca de benitez,17.0333,-100.0667,31.59,61,49,4.05,MX,1690412935
225,sao gabriel da cachoeira,-0.1303,-67.0892,24.94,90,92,0.74,BR,1690412935
226,novyy urengoy,66.0833,76.6333,19.24,67,73,2.71,RU,1690412935
227,san blas,21.5167,-105.2667,28.94,66,97,2.37,MX,1690412935
228,pawai,24.2667,80.1667,29.29,63,93,2.03,IN,1690412935
229,dudinka,69.4058,86.1778,22.57,71,7,1.88,RU,1690412936
230,zheleznogorsk-ilimskiy,56.5768,104.1217,16.72,84,55,1.29,RU,1690412936
231,crespo,-32.0287,-60.3066,11.0,54,38,3.18,AR,1690412936
232,susuman,62.7833,148.1667,10.31,86,100,2.03,RU,1690412936
233,newman,37.3138,-121.0208,40.59,9,0,6.35,US,1690412375
234,amahai,-3.3333,128.9167,26.11,86,60,1.65,ID,1690412535
235,port blair,11.6667,92.75,28.02,83,75,3.6,IN,1690412510
236,palmas,-10.2128,-48.3603,27.93,44,0,2.06,BR,1690412408
237,marsabit,2.3284,37.9899,19.04,53,87,10.31,KE,1690412937
238,badger,64.8,-147.5333,27.77,56,75,0.0,US,1690412937
239,acarau,-2.8856,-40.12,26.03,80,30,8.28,BR,1690412937
240,toksovo,60.1532,30.5165,16.7,98,95,1.32,RU,1690412937
241,paracuru,-3.41,-39.0306,26.73,81,6,6.48,BR,1690412526
242,nadym,65.5333,72.5167,17.68,82,17,3.14,RU,1690412938
243,kingston,17.997,-76.7936,32.36,72,40,2.06,JM,1690412420
244,goure,13.9835,10.2704,31.68,41,99,3.95,NE,1690412938
245,anloga,5.7947,0.8973,24.84,92,63,4.43,GH,1690412504
246,san clemente,33.427,-117.612,42.93,76,19,1.34,US,1690412386
247,as salimiyah,29.3339,48.0761,37.72,30,4,4.1,KW,1690412939
248,touros,-5.1989,-35.4608,24.78,84,8,6.61,BR,1690412939
249,beboto,8.2668,16.939,21.36,95,98,1.04,TD,1690412940
250,kilindoni,-7.9139,39.6668,25.28,75,80,7.88,TZ,1690412940
251,sainte-suzanne,-20.9061,55.6089,20.12,82,20,2.57,RE,1690412940
252,kiruna,67.8557,20.2251,8.51,100,75,2.06,SE,1690412940
253,richards bay,-28.783,32.0377,18.46,69,0,8.27,ZA,1690412565
254,iskateley,67.6803,53.1512,14.74,75,49,1.75,RU,1690412941
255,olyokminsk,60.3736,120.4264,21.45,78,9,2.18,RU,1690412239
256,bauru,-22.3147,-49.0606,22.68,53,37,1.34,BR,1690412829
257,koumra,8.9126,17.5539,22.18,94,96,0.6,TD,1690412941
258,kovdor,67.5662,30.4758,11.72,92,100,0.45,RU,1690412942
259,fale old settlement,-9.3852,-171.2468,28.4,73,15,8.39,TK,1690412942
260,roma,43.2128,-75.4557,29.27,54,0,3.09,US,1690412190
261,kapoeta,4.7717,33.5903,21.72,90,100,2.73,SS,1690412943
262,nemuro,43.3236,145.575,17.39,96,81,0.67,JP,1690412229
263,happy valley-goose bay,53.3168,-60.3315,20.77,62,81,1.14,CA,1690412943
264,jinchang,38.4953,102.1739,23.06,45,100,0.91,CN,1690412944
265,epe,6.5841,3.9834,24.61,92,59,2.58,NG,1690412944
266,port alfred,-33.5906,26.891,15.1,91,100,3.13,ZA,1690412945
267,san patricio,28.017,-97.5169,36.4,48,0,7.87,US,1690412945
268,tessaoua,13.7574,7.9874,31.37,48,34,7.3,NE,1690412895
269,mirny,62.5353,113.9611,15.69,77,33,4.92,RU,1690412513
270,jatai,-17.8814,-51.7144,24.8,33,39,1.59,BR,1690412946
271,sur,22.5667,59.5289,28.46,72,88,6.12,OM,1690412946
272,magong,23.5654,119.5863,30.32,74,100,2.61,TW,1690412947
273,begamganj,23.6,78.3333,27.38,74,100,2.36,IN,1690412947
274,coquimbo,-29.9533,-71.3436,13.85,88,75,2.06,CL,1690412895
275,luanda,-8.8368,13.2343,21.0,94,40,2.57,AO,1690412456
276,codrington,-38.2667,141.9667,8.81,76,5,6.17,AU,1690412948
277,fengxian,34.7039,116.5872,24.69,87,12,3.68,CN,1690412948
278,gillette,44.2911,-105.5022,33.51,13,0,3.13,US,1690412948
279,aykhal,66.0,111.5,13.85,86,100,2.83,RU,1690412436
280,mandawar,29.5,78.1333,24.62,91,100,3.32,IN,1690412949
281,oranjemund,-28.55,16.4333,12.13,74,0,2.52,NA,1690412374
282,arkhangel'sk,64.5401,40.5433,14.38,86,100,1.67,RU,1690412508
283,aripuana,-9.1667,-60.6333,27.14,44,21,0.96,BR,1690412508
284,bengkulu,-3.8004,102.2655,23.8,91,75,2.37,ID,1690412950
285,constantia,44.1833,28.65,23.38,79,34,6.82,RO,1690412950
286,old orchard beach,43.5173,-70.3775,28.79,73,0,2.57,US,1690412950
287,fort bragg,35.139,-79.006,35.08,55,0,3.09,US,1690412366
288,nouadhibou,20.931,-17.0347,21.99,83,50,8.23,MR,1690412457
289,colonia,50.9333,6.95,17.81,72,0,3.6,DE,1690412349
290,mount isa,-20.7333,139.5,19.87,73,75,5.14,AU,1690412951
291,vorkuta,67.5,64.0,13.99,94,100,2.98,RU,1690412573
292,leiyang,26.4024,112.8591,26.46,92,57,1.45,CN,1690412951
293,corry,41.9203,-79.6403,27.52,57,36,4.84,US,1690412687
294,sinan,34.8262,126.1086,27.06,94,27,4.67,KR,1690412951
295,prainha,-1.8,-53.48,27.98,63,59,1.57,BR,1690412952
296,saint-philippe,-21.3585,55.7679,19.77,88,30,4.31,RE,1690412448
297,los llanos de aridane,28.6585,-17.9182,21.86,90,20,6.69,ES,1690412952
298,monze,-16.2833,27.4833,14.27,66,9,2.92,ZM,1690412952
299,kem',64.9555,34.5793,9.5,99,51,1.91,RU,1690412953
300,al majaridah,19.1236,41.9111,33.18,32,12,1.07,SA,1690412953
301,homa bay,-0.5273,34.4571,19.31,67,12,2.38,KE,1690412953
302,andergrove,-21.0833,149.1833,20.91,67,65,9.06,AU,1690412953
303,luuq,3.7938,42.5445,24.68,61,64,8.83,SO,1690412953
304,ghanzi,-21.5667,21.7833,17.36,33,12,4.15,BW,1690412450
305,lazaro cardenas,17.9583,-102.2,31.02,59,38,4.6,MX,1690412483
306,morehead city,34.7229,-76.726,31.03,78,0,5.14,US,1690412463
307,chos malal,-37.3781,-70.2709,7.0,44,100,0.88,AR,1690412954
308,krotovka,53.2858,51.1686,19.44,60,17,2.72,RU,1690412954
309,baruun-urt,46.6806,113.2792,17.82,63,1,3.23,MN,1690412955
310,gambiran satu,-8.3939,114.1464,19.56,94,51,0.92,ID,1690412955
311,mulanje,-16.0316,35.5,15.28,95,56,2.31,MW,1690412955
312,saint-pierre,-21.3393,55.4781,19.82,83,20,2.57,RE,1690412380
313,pergamos,35.0417,33.7083,27.83,42,0,1.99,GB,1690412955
314,azadshahr,34.7909,48.5707,17.27,39,0,1.03,IR,1690412956
315,weiser,44.251,-116.9693,35.17,27,0,0.45,US,1690412956
316,sao joao da barra,-21.6403,-41.0511,23.05,82,25,7.3,BR,1690412340
317,queenstown,-31.8976,26.8753,11.25,82,100,4.1,ZA,1690412956
318,ulan bator,47.9077,106.8832,12.07,87,20,0.0,MN,1690412870
319,djamaa,33.5339,5.9931,35.41,16,0,5.78,DZ,1690412448
320,hacienda huancane,-15.8222,-70.8856,3.56,17,0,5.1,PE,1690412957
321,fisterra,42.9049,-9.2629,19.3,86,15,6.03,ES,1690412957
322,port macquarie,-31.4333,152.9167,13.27,70,2,0.91,AU,1690412421
323,odda,60.0691,6.5457,16.54,91,40,0.5,NO,1690412957
324,kavaratti,10.5669,72.642,27.65,76,100,6.51,IN,1690412958
325,brunswick,41.2381,-81.8418,28.83,94,100,3.6,US,1690412913
326,new norfolk,-42.7826,147.0587,9.84,85,100,1.48,AU,1690412386
327,sheridan,44.8333,-106.9173,34.27,23,0,3.6,US,1690412958
328,shingu,33.7333,135.9833,30.16,72,9,0.77,JP,1690412454
329,tangalle,6.024,80.7911,24.79,90,100,4.18,LK,1690412385
330,santo domingo de la calzada,42.4285,-2.9555,15.22,86,0,0.61,ES,1690412959
331,bardai,11.65,7.2333,24.5,79,93,4.97,NG,1690412959
332,el porvenir,13.7617,-87.3458,30.63,51,72,2.01,HN,1690412959
333,labytnangi,66.6572,66.4183,15.79,90,96,5.88,RU,1690412959
334,allapalli,19.4167,80.0667,25.34,94,99,1.19,IN,1690412960
335,malango,-2.9627,119.9001,18.34,95,48,0.91,ID,1690412960
336,coahuayana de hidalgo,18.7,-103.6583,31.53,62,83,2.47,MX,1690412960
337,port alberni,49.2413,-124.8028,24.4,47,91,4.92,CA,1690412960
338,machali,-34.1833,-70.6667,9.29,79,100,1.34,CL,1690412961
339,darzab,35.9774,65.3783,25.91,17,10,3.21,AF,1690412961
340,constitucion,-35.3333,-72.4167,11.0,79,100,4.07,CL,1690412961
341,zaozersk,69.4005,32.4476,10.42,96,100,0.28,RU,1690412961
342,crane,31.3974,-102.3501,36.47,21,29,7.25,US,1690412961
343,churapcha,62.0025,132.4325,18.7,48,47,3.9,RU,1690412962
344,qrendi,35.8347,14.4583,25.81,69,0,8.23,MT,1690412963
345,azul,-36.777,-59.8585,6.0,71,46,3.8,AR,1690412404
346,kingscliff,-28.2667,153.5667,17.89,63,100,2.57,AU,1690412964
347,tokamachi,37.1333,138.7667,31.12,65,20,0.34,JP,1690412964
348,kokstad,-30.5472,29.4241,10.9,39,26,2.26,ZA,1690412964
349,smirnovo,54.5125,69.4222,15.09,90,17,2.79,KZ,1690412965
350,aldinga beach,-35.2793,138.4604,15.81,58,3,5.86,AU,1690412965
351,choibalsan,48.0667,114.5,17.87,73,2,3.21,MN,1690412965
352,piacenza,45.0468,9.6994,21.81,56,13,1.88,IT,1690412966
353,obo,5.3998,26.4869,20.93,93,100,1.35,CF,1690412966
354,bourgoin-jallieu,45.5833,5.2833,17.73,70,30,0.93,FR,1690412966
355,juigne,47.7188,-0.3941,18.42,82,100,4.12,FR,1690412966
356,moravce,46.1369,14.745,12.08,92,49,0.91,SI,1690412967
357,leava,-14.3,-178.1667,25.99,74,85,7.08,WF,1690412967
358,tot'ma,59.9747,42.7642,16.78,100,94,1.54,RU,1690412967
359,kyabe,9.4515,18.9449,21.29,92,32,0.25,TD,1690412967
360,kyshtovka,56.555,76.6271,16.98,72,100,0.78,RU,1690412967
361,malvan,16.0667,73.4667,26.08,86,100,8.05,IN,1690412968
362,nieuw amsterdam,5.8833,-55.0833,25.08,90,48,3.19,SR,1690412968
363,flekkefjord,58.2971,6.6607,13.86,95,30,3.21,NO,1690412968
364,island harbour,50.724,-1.2758,16.75,95,100,5.81,GB,1690412968
365,cruzeiro do sul,-29.5128,-51.9853,16.96,87,100,3.72,BR,1690412684
366,manta,-0.95,-80.7333,26.88,73,0,5.81,EC,1690412969
367,labrador city,52.9463,-66.9114,16.99,69,75,4.91,CA,1690412969
368,hadibu,12.65,54.0333,25.17,81,31,10.24,YE,1690412969
369,dire dawa,9.5931,41.8661,22.12,63,29,7.09,ET,1690412969
370,mount gambier,-37.8333,140.7667,8.8,70,2,4.82,AU,1690412969
371,madang,-5.2246,145.7966,27.08,68,39,2.5,PG,1690412970
372,kaspiysk,42.8816,47.6392,20.1,88,0,4.0,RU,1690412970
373,igrim,63.1906,64.4162,13.96,97,100,1.36,RU,1690412970
374,tauranga,-37.6861,176.1667,12.19,83,88,1.79,NZ,1690412971
375,key west,24.5557,-81.7826,31.0,68,0,4.63,US,1690412971
376,holyhead,53.3062,-4.6321,16.96,100,100,8.23,GB,1690412971
377,hasaki,35.7333,140.8333,29.05,77,9,3.57,JP,1690412971
378,roseti,44.2167,27.4333,23.35,87,48,3.13,RO,1690412972
379,klaksvik,62.2266,-6.589,9.51,77,44,2.25,FO,1690412972
380,santa ana,33.7456,-117.8678,41.75,41,20,4.12,US,1690412943
381,salzwedel,52.85,11.15,12.79,94,53,3.06,DE,1690412972
382,swakopmund,-22.6833,14.5333,11.1,84,18,0.89,NA,1690412973
383,hola prystan',46.5206,32.5258,22.17,66,5,1.51,UA,1690412973
384,arteche,12.2645,125.4048,26.96,80,100,3.53,PH,1690412973
385,camana,-16.6228,-72.7111,17.43,83,79,3.21,PE,1690412973
386,uturoa,-16.7333,-151.4333,25.61,84,50,4.37,PF,1690412974
387,clarksville,36.5298,-87.3595,30.13,76,0,4.12,US,1690412808
388,nicoya,10.1483,-85.452,26.09,84,92,1.95,CR,1690412974
389,lingig,8.0389,126.4125,26.6,82,100,1.35,PH,1690412974
390,mata-utu,-13.2816,-176.1745,26.28,77,100,7.13,WF,1690412974
391,la ronge,55.1001,-105.2842,13.39,91,100,4.96,CA,1690412975
392,houghton,47.1219,-88.569,23.71,80,0,3.09,US,1690412975
393,huancayo,-12.0667,-75.2333,13.95,53,0,4.05,PE,1690412419
394,sinabang,2.4803,96.3801,26.31,85,100,0.93,ID,1690412975
395,tshikapa,-6.4167,20.8,23.61,31,3,0.53,CD,1690412976
396,yeniseysk,58.4497,92.1703,15.36,95,97,1.3,RU,1690412976
397,carnarvon,-24.8667,113.6333,15.83,57,31,6.04,AU,1690412976
398,cartagena,10.3997,-75.5144,27.77,81,82,2.22,CO,1690412667
399,lincoln,40.8,-96.667,38.28,56,0,2.06,US,1690412916
400,kihancha,-1.1838,34.6262,16.92,62,27,2.45,KE,1690412839
401,lijiang,26.8688,100.2207,13.9,97,100,1.77,CN,1690412977
402,estevan,49.1334,-102.9842,30.68,17,7,9.29,CA,1690412977
403,puerto baquerizo moreno,-0.9,-89.6,24.41,78,77,4.8,EC,1690412977
404,boumerdas,36.7664,3.4772,27.08,74,0,3.08,DZ,1690412977
405,praya,14.9215,-23.5087,27.3,78,75,5.14,CV,1690412978
406,palekh,56.8028,41.8572,19.32,94,22,4.55,RU,1690412978
407,jayapura,-2.5333,140.7,25.66,90,100,1.4,ID,1690412978
408,tromso,69.6496,18.957,11.32,87,20,5.14,NO,1690412978
409,orthez,43.4884,-0.7724,17.71,93,1,0.31,FR,1690412978
410,nuuk,64.1835,-51.7216,5.34,93,75,4.63,GL,1690412979
411,gadzhiyevo,69.2551,33.3362,10.07,96,100,1.19,RU,1690412979
412,wendell,35.781,-78.3697,34.36,68,81,2.94,US,1690412979
413,olmos,-5.9847,-79.7453,25.5,56,93,3.51,PE,1690412979
414,kroya,-7.6331,109.2461,20.79,88,50,2.31,ID,1690412980
415,ulladulla,-35.35,150.4667,12.45,51,0,2.04,AU,1690412980
416,lata,40.1629,-8.3327,17.82,96,17,1.57,PT,1690412980
417,elliot lake,46.3834,-82.6331,19.07,94,100,1.94,CA,1690412980
418,hailey,43.5196,-114.3153,31.0,18,0,5.81,US,1690412800
419,le morne-rouge,14.7667,-61.1333,24.76,80,88,4.76,MQ,1690412980
420,letlhakane,-21.4167,25.5833,15.49,56,1,5.38,BW,1690412981
421,toliara,-23.35,43.6667,18.37,58,0,7.52,MG,1690412981
422,maksatikha,57.797,35.8825,12.9,98,54,2.27,RU,1690412981
423,coyhaique,-45.5752,-72.0662,-0.03,93,100,1.54,CL,1690412785
424,remire-montjoly,4.9167,-52.2667,26.02,94,20,0.51,GF,1690412981
425,luena,-11.7833,19.9167,15.19,42,0,1.85,AO,1690412982
426,puerto deseado,-47.7503,-65.8938,1.04,71,6,4.72,AR,1690412982
427,kolonia town,6.964,158.206,30.06,79,40,2.06,FM,1690412982
428,walvis bay,-22.9575,14.5053,11.16,77,8,2.66,NA,1690412982
429,sipocot,13.768,122.9762,26.6,89,100,6.48,PH,1690412982
430,sechura,-5.5569,-80.8222,24.85,64,63,8.44,PE,1690412983
431,kirakira,-10.4544,161.9205,27.09,85,91,5.84,SB,1690412983
432,ain sukhna,29.6002,32.3167,30.35,41,1,2.21,EG,1690412983
433,north platte,41.1239,-100.7654,35.62,44,0,2.57,US,1690412983
434,vilyuchinsk,52.9306,158.4028,22.15,73,100,1.46,RU,1690412983
435,chonchi,-42.6128,-73.8092,8.4,97,100,0.58,CL,1690412713
436,tongouson,5.0214,120.1328,28.43,78,100,7.99,PH,1690412984
437,erdemli,36.605,34.3084,28.45,57,0,3.12,TR,1690412984
438,bari sadri,24.4167,74.4667,26.1,87,100,2.57,IN,1690412984
439,filipstad,59.7124,14.1683,9.37,96,10,1.47,SE,1690412984
440,harlingen,26.1906,-97.6961,36.05,32,0,9.26,US,1690412956
441,nova sintra,14.8667,-24.7167,22.86,87,53,6.06,CV,1690412985
442,peace river,56.2501,-117.286,19.17,82,75,4.63,CA,1690412985
443,hidden valley lake,38.808,-122.5583,36.23,28,0,2.24,US,1690412985
444,chipata,-13.6333,32.65,12.1,87,6,2.55,ZM,1690412986
445,northam,51.0333,-4.2167,18.14,98,100,9.74,GB,1690412987
446,bhimunipatnam,17.8833,83.4333,25.35,90,95,8.66,IN,1690412987
447,karukh,34.4811,62.5863,27.0,15,0,9.54,AF,1690412987
448,qusmuryn,52.4503,64.6311,18.47,72,48,1.52,KZ,1690412987
449,east london,-33.0153,27.9116,17.38,73,83,6.84,ZA,1690412903
450,gisborne,-38.6533,178.0042,9.64,64,71,4.27,NZ,1690412955
451,malmesbury,-33.4608,18.7271,8.2,92,95,1.84,ZA,1690412988
452,kristiansund,63.1115,7.732,15.03,94,100,2.57,NO,1690412988
453,cam ranh,11.9214,109.1591,26.98,89,20,1.03,VN,1690412989
454,port elizabeth,-33.918,25.5701,13.39,76,100,5.07,ZA,1690412989
455,amboasary,-25.0333,46.3833,16.1,74,7,3.29,MG,1690412989
456,las khorey,11.1595,48.1967,31.67,49,24,6.86,SO,1690412990
457,kolonia,50.9333,6.95,17.81,71,0,3.6,DE,1690412990
458,boguchany,58.3814,97.4531,17.2,94,89,0.64,RU,1690412990
459,villazon,-22.0866,-65.5942,7.68,33,0,4.39,BO,1690412990
460,geraldton,-28.7667,114.6,9.23,93,75,2.57,AU,1690412991
461,palikir - national government center,6.9248,158.1611,29.47,79,40,2.06,FM,1690412991
462,turpan,42.9333,89.1667,35.24,12,2,1.4,CN,1690412991
463,kayangel,8.0823,134.7173,25.8,90,100,9.99,PW,1690412991
464,mil'kovo,55.6078,37.7956,18.73,91,57,2.55,RU,1690412991
465,ciudad lazaro cardenas,17.9583,-102.2,31.02,59,38,4.6,MX,1690412992
466,prince rupert,54.3161,-130.3201,17.28,71,80,2.6,CA,1690412988
467,nema,57.5067,50.5011,16.86,96,100,3.77,RU,1690412992
468,cooper's town,26.8667,-77.5167,27.27,76,100,3.36,BS,1690412992
469,manalongon,9.2209,122.886,26.91,84,98,4.75,PH,1690412992
470,male,4.1748,73.5089,27.79,75,100,1.9,MV,1690412981
471,tsetserleg,47.475,101.4542,11.33,75,77,2.56,MN,1690412993
472,napili-honokowai,20.9708,-156.6705,30.64,86,5,7.8,US,1690412993
473,kalymnos,36.95,26.9833,27.74,74,0,3.6,GR,1690412993
474,huron,41.1501,-82.5499,29.43,73,55,7.42,US,1690412994
475,lupane,-18.9315,27.807,11.77,65,1,1.3,ZW,1690412967
476,greymouth,-42.4667,171.2,8.77,69,95,8.3,NZ,1690412967
477,lobito,-12.3481,13.5456,19.97,89,12,2.79,AO,1690412994
478,twon-brass,4.3151,6.2418,25.6,87,87,5.61,NG,1690412994
479,saint joseph,39.7686,-94.8466,36.25,65,0,3.6,US,1690412995
480,el abadia,36.2695,1.6861,26.86,58,0,3.34,DZ,1690412995
481,lillesand,58.2488,8.3778,12.97,94,100,2.57,NO,1690412995
482,kelso,46.1468,-122.9084,29.66,38,0,4.12,US,1690412995
483,languyan,5.2618,120.0807,27.91,79,100,5.28,PH,1690412995
484,bel ombre,-4.6167,55.4167,25.26,84,67,6.96,SC,1690412995
485,vila franca do campo,37.7167,-25.4333,21.23,82,22,2.01,PT,1690412996
486,mahebourg,-20.4081,57.7,19.16,94,20,1.54,MU,1690412996
487,winnemucca,40.973,-117.7357,37.03,8,0,4.63,US,1690412865
488,mili,6.0815,171.735,27.79,77,85,5.19,MH,1690412996
489,lautoka,-17.6167,177.4667,21.92,83,100,4.12,FJ,1690412996
490,san fernando,15.0286,120.6898,26.35,88,100,6.22,PH,1690412984
491,tarime,-1.35,34.3667,17.43,61,36,1.71,TZ,1690412997
492,port moresby,-9.4431,147.1797,25.81,73,68,3.02,PG,1690412997
493,fenoarivo be,-18.4333,46.5667,12.37,82,2,3.83,MG,1690412997
494,kasongo-lunda,-6.4667,16.8167,23.32,43,3,0.79,CD,1690412997
495,brookings,44.3114,-96.7984,36.0,31,0,0.0,US,1690412997
496,alvaraes,-3.2208,-64.8042,27.93,51,42,0.64,BR,1690412998
497,tanjung pandan,-2.75,107.65,24.93,91,78,3.47,ID,1690412998
498,camacupa,-12.0167,17.4833,17.07,35,0,1.22,AO,1690412998
499,kalmunai,7.4167,81.8167,26.5,77,100,2.66,LK,1690412998
500,tamasi,46.6333,18.2833,14.82,65,81,5.67,HU,1690412998
501,luwuk,-0.9516,122.7875,25.19,85,73,2.43,ID,1690412998
502,simanggang,1.2472,111.4528,22.91,91,91,1.12,MY,1690412999
503,cabedelo,-6.9811,-34.8339,24.37,86,17,5.91,BR,1690412999
504,ararangua,-28.9347,-49.4858,20.01,74,99,1.93,BR,1690412999
505,viqueque,-8.8673,126.3658,21.73,86,33,0.65,TL,1690412999
506,hilo,19.7297,-155.09,29.41,78,40,4.63,US,1690412712
507,nehe,48.4833,124.8333,21.53,97,85,2.85,CN,1690412999
508,kurumkan,54.3,110.3,17.15,89,100,0.3,RU,1690413000
509,illizi,26.4833,8.4667,34.23,10,1,5.32,DZ,1690413000
510,praia,14.9215,-23.5087,27.3,78,75,5.14,CV,1690412870
511,selkirk,50.1436,-96.8845,32.27,83,57,2.7,CA,1690412974
512,beihuaidian,39.2553,117.5583,26.01,72,87,2.64,CN,1690413000
513,mount pearl,47.5166,-52.7813,21.52,70,98,4.83,CA,1690412855
514,polyarnyy,69.1989,33.4478,10.24,97,100,1.29,RU,1690413001
515,machico,32.7,-16.7667,22.35,79,20,2.57,PT,1690413001
516,pasto,1.2136,-77.2811,13.93,92,75,0.9,CO,1690413001
517,znojmo,48.8555,16.0488,13.39,84,17,4.77,CZ,1690413002
518,saint-francois,46.4154,3.9054,16.69,77,64,2.06,FR,1690413002
519,tual,-5.6667,132.75,26.02,85,88,9.34,ID,1690413002
520,dundee,56.5,-2.9667,14.27,92,75,3.6,GB,1690413003
521,prieska,-29.6641,22.7474,8.44,52,0,1.62,ZA,1690413003
522,roswell,34.0232,-84.3616,33.6,59,0,2.57,US,1690412802
523,san juan,-31.5375,-68.5364,13.23,44,43,1.72,AR,1690413003
524,songyuan,45.1171,124.8568,25.4,84,77,6.92,CN,1690412725
525,novodvinsk,64.4165,40.8122,14.43,87,99,1.79,RU,1690413004
526,joao pinheiro,-17.7425,-46.1725,20.85,38,0,0.26,BR,1690413005
527,bubaque,11.2833,-15.8333,27.58,81,90,5.55,GW,1690413005
528,anse a galets,18.8317,-72.8642,26.14,91,100,3.89,HT,1690413005
529,lulea,65.5842,22.1547,16.04,88,100,0.51,SE,1690413005
530,namanyere,-7.5167,31.05,15.28,42,73,3.83,TZ,1690413006
531,naracoorte,-36.9579,140.7383,8.84,69,0,5.58,AU,1690413006
532,pisco,-13.7,-76.2167,19.03,72,0,7.72,PE,1690413006
533,muravlenko,63.7898,74.523,18.28,72,76,2.11,RU,1690413006
534,anamosa,42.1083,-91.2852,34.6,51,0,5.45,US,1690413007
535,nogliki,51.8333,143.1667,16.63,97,100,4.79,RU,1690413007
536,karratha,-20.7377,116.8463,19.02,69,42,3.61,AU,1690413007
537,kununurra,-15.7667,128.7333,14.99,82,6,0.0,AU,1690413007
538,formosa,-26.1775,-58.1781,15.99,87,100,6.17,AR,1690413008
539,macas,-2.3167,-78.1167,25.86,69,40,2.57,EC,1690413008
540,okha,53.5739,142.9478,13.44,98,100,2.95,RU,1690413008
541,stolin,51.8912,26.846,15.48,96,100,3.65,BY,1690413008
542,posto fiscal rolim de moura,-13.0833,-62.2667,28.8,37,34,0.11,BR,1690413009
543,balabac,7.9868,117.0645,28.58,75,91,6.93,PH,1690413009
544,dakhla,23.6848,-15.958,20.18,88,0,10.41,EH,1690413010
545,vanimo,-2.6741,141.3028,26.29,88,100,1.63,PG,1690413010
546,arno,60.1167,18.6333,13.23,73,34,3.73,SE,1690413010
547,libreville,0.3925,9.4537,26.01,78,20,2.57,GA,1690412136
548,palestine,31.9216,35.2033,26.05,33,2,1.18,PS,1690413011
549,dungarpur,23.8333,73.7167,26.76,86,100,5.21,IN,1690413011
550,malmyzh,56.5205,50.6818,17.04,91,77,3.71,RU,1690413012
551,bundu,23.1833,85.5833,24.86,96,64,2.74,IN,1690413012
552,anthony,32.004,-106.6058,42.25,12,0,1.54,US,1690413002
553,berezovyy,51.6667,135.7,22.91,75,74,0.78,RU,1690413013
554,galle,6.0367,80.217,25.64,87,100,3.24,LK,1690412855
555,shakhtersk,48.0625,38.5167,21.37,48,0,2.03,UA,1690413013
556,agadez,19.75,10.25,32.71,10,6,4.68,NE,1690413013
557,bandar-e lengeh,26.5579,54.8807,33.11,77,95,5.25,IR,1690413014
558,hami,42.8,93.45,28.12,14,2,4.06,CN,1690412919
559,vaskelovo,60.3693,30.3534,13.37,97,100,1.11,RU,1690413014
560,margate,51.3813,1.3862,16.28,94,100,4.47,GB,1690413014
561,argostolion,38.1811,20.489,25.42,88,64,3.59,GR,1690413014
562,puerto ayacucho,5.6639,-67.6236,25.77,86,76,2.36,VE,1690413015
563,crofton,39.0018,-76.6875,31.75,72,0,5.14,US,1690413015
564,cockburn town,21.4612,-71.1419,28.66,83,57,9.61,TC,1690413015
565,new richmond,45.123,-92.5366,33.4,66,40,0.0,US,1690413015
